[
  { "id": "1", "chain_id": "carrefour-hyper", "chain_name_ar": "كارفور هايبر ماركت", "chain_name_en": "Carrefour Hypermarket", "branch_name": "سيتي سنتر المعادي", "type": "Hyper", "governorate": "القاهرة", "city_district": "المعادي", "address": "سيتي سنتر المعادي، الطريق الدائري", "working_hours": "08:30 AM - 12:00 AM", "hotline_phone": "16061", "google_maps_link": "https://maps.google.com/?q=29.9806,31.3094", "coordinates": { "lat": 29.9806, "lng": 31.3094 }, "is_active_2026": true },
  { "id": "2", "chain_id": "carrefour-hyper", "chain_name_ar": "كارفور هايبر ماركت", "chain_name_en": "Carrefour Hypermarket", "branch_name": "كايرو فيستيفال", "type": "Hyper", "governorate": "القاهرة", "city_district": "التجمع الخامس", "address": "كايرو فيستيفال سيتي مول، التجمع الخامس", "working_hours": "09:00 AM - 12:00 AM", "hotline_phone": "16061", "google_maps_link": "https://maps.google.com/?q=30.0275,31.4057", "coordinates": { "lat": 30.0275, "lng": 31.4057 }, "is_active_2026": true },
  { "id": "3", "chain_id": "carrefour-express", "chain_name_ar": "كارفور إكسبريس", "chain_name_en": "Carrefour Express", "branch_name": "زنين", "type": "Express", "governorate": "الجيزة", "city_district": "بولاق الدكرور", "address": "شارع زنين، بولاق الدكرور", "working_hours": "24 Hours", "hotline_phone": "16061", "google_maps_link": "https://maps.google.com/?q=30.0385,31.1895", "coordinates": { "lat": 30.0385, "lng": 31.1895 }, "is_active_2026": true },
  { "id": "4", "chain_id": "speco", "chain_name_ar": "اسبيكو (Esbeco Market)", "chain_name_en": "Speco Market", "branch_name": "فرع مدينة نصر", "type": "Market", "governorate": "القاهرة", "city_district": "مدينة نصر", "address": "شارع الطيران، مدينة نصر", "working_hours": "09:00 AM - 11:00 PM", "hotline_phone": "01011111111", "google_maps_link": "https://maps.google.com/", "coordinates": { "lat": 30.0573, "lng": 31.3263 }, "is_active_2026": true },
  { "id": "5", "chain_id": "fergani", "chain_name_ar": "الفرجاني ماركت", "chain_name_en": "El Fergani Market", "branch_name": "فرع الهرم", "type": "Market", "governorate": "الجيزة", "city_district": "الهرم", "address": "شارع الهرم الرئيسي، أمام سنترال الهرم", "working_hours": "08:00 AM - 01:00 AM", "hotline_phone": "19702", "google_maps_link": "https://maps.google.com/?q=29.9912,31.1643", "coordinates": { "lat": 29.9912, "lng": 31.1643 }, "is_active_2026": true },
  { "id": "6", "chain_id": "raya", "chain_name_ar": "الراية ماركت", "chain_name_en": "Raya Market", "branch_name": "المعادي", "type": "Market", "governorate": "القاهرة", "city_district": "المعادي", "address": "شارع النصر، المعادي الجديدة", "working_hours": "09:00 AM - 11:00 PM", "hotline_phone": "16850", "google_maps_link": "https://maps.google.com/", "coordinates": { "lat": 29.9752, "lng": 31.2721 }, "is_active_2026": true },
  { "id": "7", "chain_id": "othaim", "chain_name_ar": "العثيم ماركت", "chain_name_en": "Othaim Markets", "branch_name": "المهندسين", "type": "Market", "governorate": "الجيزة", "city_district": "المهندسين", "address": "شارع جامعة الدول العربية، المهندسين", "working_hours": "08:00 AM - 12:00 AM", "hotline_phone": "19279", "google_maps_link": "https://maps.google.com/", "coordinates": { "lat": 30.0543, "lng": 31.1983 }, "is_active_2026": true },
  { "id": "8", "chain_id": "mahallawi-market", "chain_name_ar": "المحلاوي ماركت", "chain_name_en": "El Mahallawi Market", "branch_name": "الدقي", "type": "Market", "governorate": "الجيزة", "city_district": "الدقي", "address": "شارع التحرير، الدقي", "working_hours": "08:00 AM - 11:30 PM", "hotline_phone": "16055", "google_maps_link": "https://maps.google.com/", "coordinates": { "lat": 30.0388, "lng": 31.2115 }, "is_active_2026": true },
  { "id": "9", "chain_id": "mahallawi-hyper", "chain_name_ar": "المحلاوي هايبر", "chain_name_en": "El Mahallawi Hyper", "branch_name": "فرع أكتوبر", "type": "Hyper", "governorate": "الجيزة", "city_district": "6 أكتوبر", "address": "المحور المركزي، مدينة 6 أكتوبر", "working_hours": "09:00 AM - 12:00 AM", "hotline_phone": "16055", "google_maps_link": "https://maps.google.com/", "coordinates": { "lat": 29.9714, "lng": 30.9419 }, "is_active_2026": true },
  { "id": "10", "chain_id": "mahallawi-stores", "chain_name_ar": "المحلاوي ستورز", "chain_name_en": "El Mahallawi Stores", "branch_name": "فيصل", "type": "Market", "governorate": "الجيزة", "city_district": "فيصل", "address": "شارع فيصل الرئيسي، المريوطية", "working_hours": "09:00 AM - 11:00 PM", "hotline_phone": "16055", "google_maps_link": "https://maps.google.com/", "coordinates": { "lat": 29.9928, "lng": 31.1578 }, "is_active_2026": true },
  { "id": "11", "chain_id": "sun-mall", "chain_name_ar": "صن مول (جهاز الخدمات)", "chain_name_en": "Sun Mall", "branch_name": "هليوبوليس", "type": "Market", "governorate": "القاهرة", "city_district": "مصر الجديدة", "address": "شارع الميرغني، مصر الجديدة", "working_hours": "08:00 AM - 11:00 PM", "hotline_phone": "16666", "google_maps_link": "https://maps.google.com/", "coordinates": { "lat": 30.0925, "lng": 31.3283 }, "is_active_2026": true },
  { "id": "12", "chain_id": "ahram-coop", "chain_name_ar": "مجمعات الأهرام الاستهلاكية", "chain_name_en": "Ahram Cooperatives", "branch_name": "الجيزة", "type": "Cooperative", "governorate": "الجيزة", "city_district": "الدقي", "address": "ميدان المساحة، الدقي", "working_hours": "08:00 AM - 08:00 PM", "hotline_phone": "19468", "google_maps_link": "https://maps.google.com/", "coordinates": { "lat": 30.0413, "lng": 31.2052 }, "is_active_2026": true },
  { "id": "13", "chain_id": "nile-coop", "chain_name_ar": "النيل للمجمعات الاستهلاكية", "chain_name_en": "Nile Cooperatives", "branch_name": "شبرا", "type": "Cooperative", "governorate": "القاهرة", "city_district": "شبرا", "address": "شارع شبرا الرئيسي", "working_hours": "08:00 AM - 08:00 PM", "hotline_phone": "19468", "google_maps_link": "https://maps.google.com/", "coordinates": { "lat": 30.0718, "lng": 31.2464 }, "is_active_2026": true },
  { "id": "14", "chain_id": "gizawy", "chain_name_ar": "الجيزاوي ماركت", "chain_name_en": "El Gizawy Market", "branch_name": "العمرانية", "type": "Market", "governorate": "الجيزة", "city_district": "العمرانية", "address": "شارع الثلاثيني، العمرانية", "working_hours": "09:00 AM - 11:30 PM", "hotline_phone": "01122334455", "google_maps_link": "https://maps.google.com/", "coordinates": { "lat": 30.0076, "lng": 31.1895 }, "is_active_2026": true },
  { "id": "15", "chain_id": "alloush", "chain_name_ar": "علوش ماركت", "chain_name_en": "Alloush Market", "branch_name": "الرحاب", "type": "Market", "governorate": "القاهرة", "city_district": "الرحاب", "address": "السوق التجاري الأول، الرحاب", "working_hours": "08:00 AM - 12:00 AM", "hotline_phone": "16444", "google_maps_link": "https://maps.google.com/", "coordinates": { "lat": 30.0628, "lng": 31.4925 }, "is_active_2026": true },
  { "id": "16", "chain_id": "spinneys", "chain_name_ar": "سبينيس", "chain_name_en": "Spinneys", "branch_name": "مول العرب", "type": "Hyper", "governorate": "الجيزة", "city_district": "6 أكتوبر", "address": "مول العرب، ميدان جهينة", "working_hours": "09:00 AM - 12:00 AM", "hotline_phone": "16005", "google_maps_link": "https://maps.google.com/?q=30.0069,30.9734", "coordinates": { "lat": 30.0069, "lng": 30.9734 }, "is_active_2026": true },
  { "id": "17", "chain_id": "metro", "chain_name_ar": "مترو ماركت", "chain_name_en": "Metro Market", "branch_name": "الزمالك", "type": "Market", "governorate": "القاهرة", "city_district": "الزمالك", "address": "شارع 26 يوليو، الزمالك", "working_hours": "08:00 AM - 12:00 AM", "hotline_phone": "19619", "google_maps_link": "https://maps.google.com/", "coordinates": { "lat": 30.0594, "lng": 31.2227 }, "is_active_2026": true },
  { "id": "18", "chain_id": "hyperone", "chain_name_ar": "هايبر وان", "chain_name_en": "Hyper One", "branch_name": "الشيخ زايد", "type": "Hyper", "governorate": "الجيزة", "city_district": "الشيخ زايد", "address": "محور 26 يوليو، مدخل الشيخ زايد 1", "working_hours": "08:00 AM - 01:00 AM", "hotline_phone": "16400", "google_maps_link": "https://maps.google.com/?q=30.0465,30.9995", "coordinates": { "lat": 30.0465, "lng": 30.9995 }, "is_active_2026": true },
  { "id": "19", "chain_id": "hyperone", "chain_name_ar": "هايبر وان", "chain_name_en": "Hyper One", "branch_name": "العاشر من رمضان", "type": "Hyper", "governorate": "الشرقية", "city_district": "العاشر من رمضان", "address": "طريق مصر الإسماعيلية الصحراوي", "working_hours": "08:00 AM - 01:00 AM", "hotline_phone": "16400", "google_maps_link": "https://maps.google.com/", "coordinates": { "lat": 30.3015, "lng": 31.7454 }, "is_active_2026": true },
  { "id": "20", "chain_id": "kheirzaman", "chain_name_ar": "خير زمان", "chain_name_en": "Kheir Zaman", "branch_name": "المقطم", "type": "Market", "governorate": "القاهرة", "city_district": "المقطم", "address": "شارع 9 المقطم", "working_hours": "08:00 AM - 12:00 AM", "hotline_phone": "16007", "google_maps_link": "https://maps.google.com/", "coordinates": { "lat": 30.0163, "lng": 31.3129 }, "is_active_2026": true },
  { "id": "21", "chain_id": "beitelgomla", "chain_name_ar": "بيت الجملة", "chain_name_en": "Beit El Gomla", "branch_name": "التجمع", "type": "Hyper", "governorate": "القاهرة", "city_district": "التجمع الأول", "address": "البنفسج، التجمع الأول", "working_hours": "08:00 AM - 12:00 AM", "hotline_phone": "15500", "google_maps_link": "https://maps.google.com/", "coordinates": { "lat": 30.0416, "lng": 31.4552 }, "is_active_2026": true },
  { "id": "22", "chain_id": "carrefour-hyper", "chain_name_ar": "كارفور هايبر ماركت", "chain_name_en": "Carrefour Hypermarket", "branch_name": "سيتي سنتر الإسكندرية", "type": "Hyper", "governorate": "الإسكندرية", "city_district": "محرم بك", "address": "سيتي سنتر، طريق القاهرة الإسكندرية الصحراوي", "working_hours": "09:00 AM - 12:00 AM", "hotline_phone": "16061", "google_maps_link": "https://maps.google.com/?q=31.1811,29.9324", "coordinates": { "lat": 31.1811, "lng": 29.9324 }, "is_active_2026": true },
  { "id": "23", "chain_id": "carrefour-hyper", "chain_name_ar": "كارفور هايبر ماركت", "chain_name_en": "Carrefour Hypermarket", "branch_name": "مول مصر", "type": "Hyper", "governorate": "الجيزة", "city_district": "6 أكتوبر", "address": "مول مصر، طريق الواحات", "working_hours": "09:00 AM - 12:00 AM", "hotline_phone": "16061", "google_maps_link": "https://maps.google.com/?q=29.9734,31.0152", "coordinates": { "lat": 29.9734, "lng": 31.0152 }, "is_active_2026": true },
  { "id": "24", "chain_id": "carrefour-hyper", "chain_name_ar": "كارفور هايبر ماركت", "chain_name_en": "Carrefour Hypermarket", "branch_name": "سيتي سنتر ألمظة", "type": "Hyper", "governorate": "القاهرة", "city_district": "مصر الجديدة", "address": "سيتي سنتر ألمظة، طريق السويس", "working_hours": "09:00 AM - 12:00 AM", "hotline_phone": "16061", "google_maps_link": "https://maps.google.com/?q=30.0841,31.3533", "coordinates": { "lat": 30.0841, "lng": 31.3533 }, "is_active_2026": true },
  { "id": "25", "chain_id": "carrefour-hyper", "chain_name_ar": "كارفور هايبر ماركت", "chain_name_en": "Carrefour Hypermarket", "branch_name": "داندي مول", "type": "Hyper", "governorate": "الجيزة", "city_district": "طريق إسكندرية الصحراوي", "address": "داندي ميجا مول، الكيلو 28", "working_hours": "09:00 AM - 12:00 AM", "hotline_phone": "16061", "google_maps_link": "https://maps.google.com/?q=30.0543,30.9856", "coordinates": { "lat": 30.0543, "lng": 30.9856 }, "is_active_2026": true },
  { "id": "26", "chain_id": "carrefour-express", "chain_name_ar": "كارفور إكسبريس", "chain_name_en": "Carrefour Express", "branch_name": "المساحة", "type": "Express", "governorate": "الجيزة", "city_district": "الدقي", "address": "ميدان المساحة، الدقي", "working_hours": "08:00 AM - 12:00 AM", "hotline_phone": "16061", "google_maps_link": "https://maps.google.com/", "coordinates": { "lat": 30.0385, "lng": 31.2105 }, "is_active_2026": true },
  { "id": "27", "chain_id": "carrefour-express", "chain_name_ar": "كارفور إكسبريس", "chain_name_en": "Carrefour Express", "branch_name": "الزمالك", "type": "Express", "governorate": "القاهرة", "city_district": "الزمالك", "address": "شارع 26 يوليو، الزمالك", "working_hours": "08:00 AM - 12:00 AM", "hotline_phone": "16061", "google_maps_link": "https://maps.google.com/", "coordinates": { "lat": 30.0594, "lng": 31.2227 }, "is_active_2026": true },
  { "id": "28", "chain_id": "fergani", "chain_name_ar": "الفرجاني ماركت", "chain_name_en": "El Fergani Market", "branch_name": "فرع فيصل", "type": "Market", "governorate": "الجيزة", "city_district": "فيصل", "address": "شارع الملك فيصل", "working_hours": "08:00 AM - 01:00 AM", "hotline_phone": "19702", "google_maps_link": "https://maps.google.com/", "coordinates": { "lat": 29.9961, "lng": 31.1718 }, "is_active_2026": true },
  { "id": "29", "chain_id": "fergani", "chain_name_ar": "الفرجاني ماركت", "chain_name_en": "El Fergani Market", "branch_name": "فرع إمبابة", "type": "Market", "governorate": "الجيزة", "city_district": "إمبابة", "address": "شارع الوحدة، إمبابة", "working_hours": "08:00 AM - 01:00 AM", "hotline_phone": "19702", "google_maps_link": "https://maps.google.com/", "coordinates": { "lat": 30.0768, "lng": 31.2014 }, "is_active_2026": true },
  { "id": "30", "chain_id": "raya", "chain_name_ar": "الراية ماركت", "chain_name_en": "Raya Market", "branch_name": "مدينة نصر", "type": "Market", "governorate": "القاهرة", "city_district": "مدينة نصر", "address": "شارع مكرم عبيد", "working_hours": "09:00 AM - 12:00 AM", "hotline_phone": "16850", "google_maps_link": "https://maps.google.com/", "coordinates": { "lat": 30.0612, "lng": 31.3392 }, "is_active_2026": true },
  { "id": "31", "chain_id": "othaim", "chain_name_ar": "العثيم ماركت", "chain_name_en": "Othaim Markets", "branch_name": "مدينة نصر", "type": "Market", "governorate": "القاهرة", "city_district": "مدينة نصر", "address": "شارع حسن المأمون", "working_hours": "08:00 AM - 12:00 AM", "hotline_phone": "19279", "google_maps_link": "https://maps.google.com/", "coordinates": { "lat": 30.0521, "lng": 31.3435 }, "is_active_2026": true },
  { "id": "32", "chain_id": "mahallawi-market", "chain_name_ar": "المحلاوي ماركت", "chain_name_en": "El Mahallawi Market", "branch_name": "مصر الجديدة", "type": "Market", "governorate": "القاهرة", "city_district": "مصر الجديدة", "address": "شارع الحجاز", "working_hours": "08:00 AM - 11:30 PM", "hotline_phone": "16055", "google_maps_link": "https://maps.google.com/", "coordinates": { "lat": 30.1032, "lng": 31.3325 }, "is_active_2026": true },
  { "id": "33", "chain_id": "spinneys", "chain_name_ar": "سبينيس", "chain_name_en": "Spinneys", "branch_name": "سموحة", "type": "Hyper", "governorate": "الإسكندرية", "city_district": "سموحة", "address": "داخل نادي سموحة", "working_hours": "09:00 AM - 12:00 AM", "hotline_phone": "16005", "google_maps_link": "https://maps.google.com/", "coordinates": { "lat": 31.2185, "lng": 29.9482 }, "is_active_2026": true },
  { "id": "34", "chain_id": "spinneys", "chain_name_ar": "سبينيس", "chain_name_en": "Spinneys", "branch_name": "ميفيدا", "type": "Market", "governorate": "القاهرة", "city_district": "التجمع الخامس", "address": "مجمع ميفيدا", "working_hours": "09:00 AM - 12:00 AM", "hotline_phone": "16005", "google_maps_link": "https://maps.google.com/", "coordinates": { "lat": 30.0152, "lng": 31.4883 }, "is_active_2026": true },
  { "id": "35", "chain_id": "metro", "chain_name_ar": "مترو ماركت", "chain_name_en": "Metro Market", "branch_name": "مصر الجديدة", "type": "Market", "governorate": "القاهرة", "city_district": "مصر الجديدة", "address": "شارع المرغني", "working_hours": "08:00 AM - 12:00 AM", "hotline_phone": "19619", "google_maps_link": "https://maps.google.com/", "coordinates": { "lat": 30.0921, "lng": 31.3289 }, "is_active_2026": true },
  { "id": "36", "chain_id": "metro", "chain_name_ar": "مترو ماركت", "chain_name_en": "Metro Market", "branch_name": "المعادي", "type": "Market", "governorate": "القاهرة", "city_district": "المعادي", "address": "شارع 233", "working_hours": "08:00 AM - 12:00 AM", "hotline_phone": "19619", "google_maps_link": "https://maps.google.com/", "coordinates": { "lat": 29.9572, "lng": 31.2725 }, "is_active_2026": true },
  { "id": "37", "chain_id": "hyperone", "chain_name_ar": "هايبر وان", "chain_name_en": "Hyper One", "branch_name": "مطار سفنكس", "type": "Hyper", "governorate": "الجيزة", "city_district": "طريق إسكندرية الصحراوي", "address": "بجوار مطار سفنكس", "working_hours": "08:00 AM - 01:00 AM", "hotline_phone": "16400", "google_maps_link": "https://maps.google.com/", "coordinates": { "lat": 30.1245, "lng": 30.8256 }, "is_active_2026": true },
  { "id": "38", "chain_id": "kheirzaman", "chain_name_ar": "خير زمان", "chain_name_en": "Kheir Zaman", "branch_name": "الدقي", "type": "Market", "governorate": "الجيزة", "city_district": "الدقي", "address": "شارع محي الدين أبو العز", "working_hours": "08:00 AM - 12:00 AM", "hotline_phone": "16007", "google_maps_link": "https://maps.google.com/", "coordinates": { "lat": 30.0412, "lng": 31.2005 }, "is_active_2026": true },
  { "id": "39", "chain_id": "kheirzaman", "chain_name_ar": "خير زمان", "chain_name_en": "Kheir Zaman", "branch_name": "المهندسين", "type": "Market", "governorate": "الجيزة", "city_district": "المهندسين", "address": "شارع البطل أحمد عبد العزيز", "working_hours": "08:00 AM - 12:00 AM", "hotline_phone": "16007", "google_maps_link": "https://maps.google.com/", "coordinates": { "lat": 30.0531, "lng": 31.2011 }, "is_active_2026": true },
  { "id": "40", "chain_id": "beitelgomla", "chain_name_ar": "بيت الجملة", "chain_name_en": "Beit El Gomla", "branch_name": "المنصورة", "type": "Hyper", "governorate": "الدقهلية", "city_district": "المنصورة", "address": "شارع الجيش", "working_hours": "08:00 AM - 12:00 AM", "hotline_phone": "15500", "google_maps_link": "https://maps.google.com/", "coordinates": { "lat": 31.0425, "lng": 31.3852 }, "is_active_2026": true },
  { "id": "41", "chain_id": "carrefour-hyper", "chain_name_ar": "كارفور هايبر ماركت", "chain_name_en": "Carrefour Hypermarket", "branch_name": "الشروق سيتي", "type": "Hyper", "governorate": "القاهرة", "city_district": "الشروق", "address": "سكاي بلازا مول", "working_hours": "09:00 AM - 12:00 AM", "hotline_phone": "16061", "google_maps_link": "https://maps.google.com/", "coordinates": { "lat": 30.1501, "lng": 31.6213 }, "is_active_2026": true },
  { "id": "42", "chain_id": "kheirzaman", "chain_name_ar": "خير زمان", "chain_name_en": "Kheir Zaman", "branch_name": "المعادي", "type": "Market", "governorate": "القاهرة", "city_district": "المعادي", "address": "شارع 9", "working_hours": "08:00 AM - 12:00 AM", "hotline_phone": "16007", "google_maps_link": "https://maps.google.com/", "coordinates": { "lat": 29.9612, "lng": 31.2589 }, "is_active_2026": true },
  { "id": "43", "chain_id": "metro", "chain_name_ar": "مترو ماركت", "chain_name_en": "Metro Market", "branch_name": "الدقي", "type": "Market", "governorate": "الجيزة", "city_district": "الدقي", "address": "شارع مصدق", "working_hours": "08:00 AM - 12:00 AM", "hotline_phone": "19619", "google_maps_link": "https://maps.google.com/", "coordinates": { "lat": 30.0381, "lng": 31.2023 }, "is_active_2026": true },
  { "id": "44", "chain_id": "raya", "chain_name_ar": "الراية ماركت", "chain_name_en": "Raya Market", "branch_name": "المهندسين", "type": "Market", "governorate": "الجيزة", "city_district": "المهندسين", "address": "شارع لبنان", "working_hours": "09:00 AM - 12:00 AM", "hotline_phone": "16850", "google_maps_link": "https://maps.google.com/", "coordinates": { "lat": 30.0621, "lng": 31.1989 }, "is_active_2026": true },
  { "id": "45", "chain_id": "speco", "chain_name_ar": "اسبيكو", "chain_name_en": "Speco Market", "branch_name": "هليوبوليس", "type": "Market", "governorate": "القاهرة", "city_district": "مصر الجديدة", "address": "ميدان الحجاز", "working_hours": "09:00 AM - 11:00 PM", "hotline_phone": "01011111111", "google_maps_link": "https://maps.google.com/", "coordinates": { "lat": 30.1012, "lng": 31.3356 }, "is_active_2026": true },
  { "id": "46", "chain_id": "ahram-coop", "chain_name_ar": "مجمعات الأهرام الاستهلاكية", "chain_name_en": "Ahram Cooperatives", "branch_name": "الهرم", "type": "Cooperative", "governorate": "الجيزة", "city_district": "الهرم", "address": "شارع الهرم", "working_hours": "08:00 AM - 08:00 PM", "hotline_phone": "19468", "google_maps_link": "https://maps.google.com/", "coordinates": { "lat": 29.9942, "lng": 31.1612 }, "is_active_2026": true },
  { "id": "47", "chain_id": "nile-coop", "chain_name_ar": "النيل للمجمعات الاستهلاكية", "chain_name_en": "Nile Cooperatives", "branch_name": "المعادي", "type": "Cooperative", "governorate": "القاهرة", "city_district": "المعادي", "address": "ميدان سوارس", "working_hours": "08:00 AM - 08:00 PM", "hotline_phone": "19468", "google_maps_link": "https://maps.google.com/", "coordinates": { "lat": 29.9610, "lng": 31.2599 }, "is_active_2026": true },
  { "id": "48", "chain_id": "gizawy", "chain_name_ar": "الجيزاوي ماركت", "chain_name_en": "El Gizawy Market", "branch_name": "فيصل", "type": "Market", "governorate": "الجيزة", "city_district": "فيصل", "address": "شارع فيصل", "working_hours": "09:00 AM - 11:30 PM", "hotline_phone": "01122334455", "google_maps_link": "https://maps.google.com/", "coordinates": { "lat": 29.9928, "lng": 31.1578 }, "is_active_2026": true },
  { "id": "49", "chain_id": "alloush", "chain_name_ar": "علوش ماركت", "chain_name_en": "Alloush Market", "branch_name": "التجمع الخامس", "type": "Market", "governorate": "القاهرة", "city_district": "التجمع الخامس", "address": "شارع التسعين", "working_hours": "08:00 AM - 12:00 AM", "hotline_phone": "16444", "google_maps_link": "https://maps.google.com/", "coordinates": { "lat": 30.0152, "lng": 31.4552 }, "is_active_2026": true },
  { "id": "50", "chain_id": "sun-mall", "chain_name_ar": "صن Mall (جهاز الخدمات)", "chain_name_en": "Sun Mall", "branch_name": "المهندسين", "type": "Market", "governorate": "الجيزة", "city_district": "المهندسين", "address": "شارع نادي الصيد", "working_hours": "08:00 AM - 11:00 PM", "hotline_phone": "16666", "google_maps_link": "https://maps.google.com/", "coordinates": { "lat": 30.0432, "lng": 31.2001 }, "is_active_2026": true }
]
